{
   "type":"FeatureCollection",
   "crs":{
      "type":"name",
      "properties":{
         "name":"EPSG:4326"
      }
   },
   "features":[
      {
         "type":"Feature",
         "properties":{
            "title":"Grand Caf\u00e9 Public",
            "rating":4,
            "text":"Nice caf\u00e9, juste in front of the museum",
            "date":"2019-12-03",
            "time":"12:39:55.033",
            "user":1
         },
         "geometry":{
            "type":"Point",
            "coordinates":[
               52.510508,
               6.091522
            ]
         }
      },
      {
         "type":"Feature",
         "properties":{
            "title":"Sally O Briens",
            "rating":5,
            "text":"Good Irish Pub, really enjoyed it",
            "date":"2019-12-03",
            "time":"14:00:08.550",
            "user":3
         },
         "geometry":{
            "type":"Point",
            "coordinates":[
               52.510795,
               6.094455
            ]
         }
      },
      {
         "type":"Feature",
         "properties":{
            "title":"fasdfas",
            "rating":0,
            "text":"asdf",
            "date":"2019-12-04",
            "time":"13:38:09",
            "user":1
         },
         "geometry":{
            "type":"Point",
            "coordinates":[
               6.167449951171506,
               52.88984903106524
            ]
         }
      },
      {
         "type":"Feature",
         "properties":{
            "title":"fasdfas",
            "rating":0,
            "text":"asdf",
            "date":"2019-12-04",
            "time":"13:42:15",
            "user":1
         },
         "geometry":{
            "type":"Point",
            "coordinates":[
               6.167449951171506,
               52.88984903106524
            ]
         }
      },
      {
         "type":"Feature",
         "properties":{
            "title":"testasdfasdf",
            "rating":5,
            "text":"asdfasdfadsf",
            "date":"2019-12-04",
            "time":"13:42:57",
            "user":1
         },
         "geometry":{
            "type":"Point",
            "coordinates":[
               5.486297607421704,
               51.863771974569346
            ]
         }
      },
      {
         "type":"Feature",
         "properties":{
            "title":"user 3a",
            "rating":0,
            "text":"dsf",
            "date":"2019-12-04",
            "time":"13:47:20",
            "user":3
         },
         "geometry":{
            "type":"Point",
            "coordinates":[
               6.535491943359006,
               52.74377457035226
            ]
         }
      },
      {
         "type":"Feature",
         "properties":{
            "title":"User 4 test",
            "rating":2,
            "text":"adsf",
            "date":"2019-12-04",
            "time":"13:50:47",
            "user":4
         },
         "geometry":{
            "type":"Point",
            "coordinates":[
               5.261077880859347,
               51.53010569212549
            ]
         }
      },
      {
         "type":"Feature",
         "properties":{
            "title":"Test friends 1",
            "rating":4,
            "text":"qsmldkfjq",
            "date":"2019-12-05",
            "time":"09:22:01.150",
            "user":2
         },
         "geometry":{
            "type":"Point",
            "coordinates":[
               -1.0,
               1.0
            ]
         }
      },
      {
         "type":"Feature",
         "properties":{
            "title":"Test friends 2",
            "rating":1,
            "text":"qsmldkfjq fdsqljk",
            "date":"2019-12-05",
            "time":"09:22:41.062",
            "user":5
         },
         "geometry":{
            "type":"Point",
            "coordinates":[
               1.0,
               -1.0
            ]
         }
      },
      {
         "type":"Feature",
         "properties":{
            "title":"Emmeloord sucks",
            "rating":1,
            "text":"asdfasdf",
            "date":"2019-12-05",
            "time":"10:12:46",
            "user":1
         },
         "geometry":{
            "type":"Point",
            "coordinates":[
               5.7389831542975,
               52.71383520358981
            ]
         }
      },
      {
         "type":"Feature",
         "properties":{
            "title":"qwerqwef",
            "rating":3,
            "text":"asdfasdf",
            "date":"2019-12-05",
            "time":"10:14:40",
            "user":1
         },
         "geometry":{
            "type":"Point",
            "coordinates":[
               5.28854370117125,
               51.618869218965585
            ]
         }
      },
      {
         "type":"Feature",
         "properties":{
            "title":"werw",
            "rating":5,
            "text":"adsfasd",
            "date":"2019-12-05",
            "time":"10:15:34",
            "user":1
         },
         "geometry":{
            "type":"Point",
            "coordinates":[
               6.562957763672472,
               51.93833874494649
            ]
         }
      },
      {
         "type":"Feature",
         "properties":{
            "title":"test with id 5 by Daan",
            "rating":4,
            "text":"adsfasd",
            "date":"2019-12-05",
            "time":"10:19:00",
            "user":5
         },
         "geometry":{
            "type":"Point",
            "coordinates":[
               6.61788940429625,
               52.630562396851985
            ]
         }
      },
      {
         "type":"Feature",
         "properties":{
            "title":"Woohooo",
            "rating":5,
            "text":"asdfasdf",
            "date":"2019-12-05",
            "time":"10:20:24",
            "user":3
         },
         "geometry":{
            "type":"Point",
            "coordinates":[
               5.58517456054696,
               51.96542325321775
            ]
         }
      },
      {
         "type":"Feature",
         "properties":{
            "title":"asdf",
            "rating":3,
            "text":"asdf",
            "date":"2019-12-05",
            "time":"10:22:34",
            "user":1
         },
         "geometry":{
            "type":"Point",
            "coordinates":[
               6.31258964538614,
               52.76011299665046
            ]
         }
      },
      {
         "type":"Feature",
         "properties":{
            "title":"D.l",
            "rating":0,
            "text":"D.l",
            "date":"2019-12-05",
            "time":"10:23:05",
            "user":2
         },
         "geometry":{
            "type":"Point",
            "coordinates":[
               6.060333251954802,
               52.428384918168206
            ]
         }
      },
      {
         "type":"Feature",
         "properties":{
            "title":"Fot",
            "rating":2,
            "text":"Fluff",
            "date":"2019-12-05",
            "time":"10:25:59",
            "user":2
         },
         "geometry":{
            "type":"Point",
            "coordinates":[
               5.604400634767615,
               52.435083351059916
            ]
         }
      }
   ]
}